{"data":[
  {"name":"Jesse Ahlers", "address":"Binnengasthuisstraat 9, Amsterdam", "lat": 52.3690102, "lng": 4.8948664},
  {"name":"Abou Ayubi", "address":"Sint Antoniesluis 31, Amsterdam", "lat": 52.3698357, "lng": 4.9010684},
  {"name":"Aussy B", "address":"Oudekerksplein 48-3, Amsterdam", "lat": 52.374543, "lng": 4.898568},
  {"name":"Jackie Bacon", "address":"Nieuwe Uilenburgerstraat 5, Amsterdam", "lat": 52.371199, "lng": 4.907103},
  {"name":"Simon Barteling", "address":"Oude Waal 32, Amsterdam", "lat": 52.3725327, "lng": 4.9046846},
  {"name":"Claire Begheyn", "address":"Nieuwe Uilenburgerstraat 106, Amsterdam", "lat": 52.3701528, "lng": 4.9038694},
  {"name":"Mark Berghoef", "address":"Geldersekade 86, Amsterdam", "lat": 52.3741441, "lng": 4.9008717},
  {"name":"Judy van Blaricon", "address":"Nieuwe Uilenburgerstraat 5, Amsterdam", "lat": 52.371199, "lng": 4.907103},
  {"name":"Lida Blijdenstein", "address":"Recht Boomssloot 101, Amsterdam", "lat": 52.3718051, "lng": 4.904477000000001},
  {"name":"Roland Broekhuis", "address":"Binnenkant 49-2, Amsterdam", "lat": 52.3726251, "lng": 4.9062508},
  {"name":"Natalia Cincunegui", "address":"De Boomsspijker, Recht Boomssloot 52, Amsterdam", "lat": 52.3719939, "lng": 4.903526299999999},
  {"name":"Roberta Cohen", "address":"Montelbaanstaat 9-1, Amsterdam", "lat": 52.3725155, "lng": 4.9038604},
  {"name":"Josephine Colsen", "address":"Sint Jansstraat 27, Amsterdam", "lat": 52.3730059, "lng": 4.8960996},
  {"name":"Jurgen Cornelis", "address":"Groenburgwal 63 hs, Amsterdam", "lat": 52.3680536, "lng": 4.8977894},
  {"name":"Steve Currie", "address":"Binnen Bantammerstraat 25, Amsterdam", "lat": 52.373676, "lng": 4.9027208},
  {"name":"Heleen van Deur", "address":"Binnenkant 31, Amsterdam", "lat": 52.37319000000001, "lng": 4.9049554},
  {"name":"Heidi van Dijk", "address":"Leidekkerssteeg 13, Amsterdam", "lat": 52.3731062, "lng": 4.8964509},
  {"name":"Henk Donker", "address":"De Ruyterkade 147 C, Amsterdam", "lat": 52.37732690000001, "lng": 4.9086018},
  {"name":"Beatrice van Dorp", "address":" Koestraat 5 E, Amsterdam", "lat": 52.372124, "lng": 4.8982933},
  {"name":"Jeannette Maria Duits", "address":"Geldersekade 86, Amsterdam", "lat": 52.3741441, "lng": 4.9008717},
  {"name":"Femmy Elzinga", "address":"De Boomsspijker, Recht Boomssloot 52, Amsterdam", "lat": 52.3719939, "lng": 4.903526299999999},
  {"name":"Joyce van den Engel", "address":"Boomsteeg 10, Amsterdam", "lat": 52.3740835, "lng": 4.9002288},
  {"name":"Wies Fermie", "address":"De Boomsspijker, Recht Boomssloot 52, Amsterdam", "lat": 52.3719939, "lng": 4.903526299999999},
  {"name":"Neil Fortune", "address":"VOX-POP Binnengasthuisstraat 9, Amsterdam", "lat": 52.35581819999999, "lng": 4.955726299999999},
  {"name":"Eveline Franken", "address":"Nieuwmarkt 221, Amsterdam", "lat": 52.37201899999999, "lng": 4.9008829},
  {"name":"Mariken de Goede", "address":"Geldersekade 7, Amsterdam", "lat": 52.3758187, "lng": 4.9025741},
  {"name":"Marijke Groeneveld", "address":"De Boomsspijker, Recht Boomssloot 52, Amsterdam", "lat": 52.3719939, "lng": 4.903526299999999},
  {"name":"Inge de Haan", "address":"Oude Waal 23, Amsterdam", "lat": 52.3728337, "lng": 4.9045157},
  {"name":"Johanna de Haan", "address":"VOX-POP Binnengasthuisstraat 9, Amsterdam", "lat": 52.35581819999999, "lng": 4.955726299999999},
  {"name":"Herman Hagenaar", "address":"Nieuwe Jonkerstraat 43, Amsterdam", "lat": 52.3735265, "lng": 4.9024964},
  {"name":"Sophia Harms-van Estrik", "address":"Amstel 134, Amsterdam", "lat": 52.3669113, "lng": 4.8981862},
  {"name":"Carl van Hees", "address":"Groenburgwal 63 hs, Amsterdam", "lat": 52.3680536, "lng": 4.8977894},
  {"name":"Raymond Huisman", "address":"Binnenkant 39, Amsterdam", "lat": 52.3730498, "lng": 4.9056961},
  {"name":"Barbara van Ittersum (Barbarizsm)", "address":"Krom Boomssloot 8-1, Amsterdam", "lat": 52.3724034, "lng": 4.9024404},
  {"name":"Renate Jacobs", "address":"De Boomsspijker, Recht Boomssloot 52, Amsterdam", "lat": 52.3719939, "lng": 4.903526299999999},
  {"name":"Edgar Jansen", "address":"Uilenburgerwerf 49, Amsterdam", "lat": 52.3701021, "lng": 4.904944899999999},
  {"name":"Hans van der Kamp", "address":"Nieuwmarkt 221, Amsterdam", "lat": 52.37201899999999, "lng": 4.9008829},
  {"name":"Paul Koeleman", "address":"Koestraat 18 hs, Amsterdam", "lat": 52.3719006, "lng": 4.8985693},
  {"name":"Inger Kolff", "address":"Kloveniersbugwal 111, Amsterdam", "lat": 52.368624, "lng": 4.896987999999999},
  {"name":"Flip Lambalk", "address":"Zuiderkerkhof 3, Amsterdam", "lat": 52.3700217, "lng": 4.9003909},
  {"name":"Martine van Leeuwen", "address":"Krom Boomssloot 37-1, Amsterdam", "lat": 52.37168579999999, "lng": 4.902597999999999},
  {"name":"Margaretha Louwers", "address":"Kloveniersbugwal 111, Amsterdam", "lat": 52.368624, "lng": 4.896987999999999},
  {"name":"Simon Millard", "address":"Krom Boomssloot 63-C, Amsterdam", "lat": 52.3709633, "lng": 4.9020692},
  {"name":"Els van der Monde", "address":"Recht Boomssloot 13, Amsterdam", "lat": 52.3729957, "lng": 4.9023553},
  {"name":"Harm Mouw", "address":"Koestraat 5 D, Amsterdam", "lat": 52.37214239999999, "lng": 4.898278299999999},
  {"name":"Martin Pluimers", "address":"Oudezijds Voorburgwal 15, Amsterdam", "lat": 52.3749857, "lng": 4.8999726},
  {"name":"Hans Puts", "address":"Krom Boomssloot 39 B, Amsterdam", "lat": 52.3716214, "lng": 4.9025612},
  {"name":"Corien Ridderikhoff", "address":"Kloveniersburgwal 111 G , Amsterdam", "lat": 52.36863289999999, "lng": 4.8970731},
  {"name":"Denise Rosenboom", "address":"Geldersekade 83 A, Amsterdam", "lat": 52.3743327, "lng": 4.901841399999999},
  {"name":"Leora Rosner", "address":"Black Gold Korte Koningsstraat 13, Amsterdam", "lat": 52.3717649, "lng": 4.9030185},
  {"name":"Roger Ruhulessin", "address":"Recht Boomssloot 13, Amsterdam", "lat": 52.3729957, "lng": 4.9023553},
  {"name":"Esther van Schagen", "address":"Oudeschans 21, Amsterdam", "lat": 52.3713189, "lng": 4.905516},
  {"name":"Willy Smits, FELICE", "address":"Binnenkant 31 H, Amsterdam", "lat": 52.37319000000001, "lng": 4.9049554},
  {"name":"Hannemieke Stamperius", "address":"Oude Schans 69-B, Amsterdam", "lat": 52.37042049999999, "lng": 4.9034113},
  {"name":"Gerrie Starreveld", "address":"De Boomsspijker Recht  Boomssloot 52, Amsterdam", "lat": 52.3719939, "lng": 4.903526299999999},
  {"name":"Marcelle Verberne", "address":"Schippersstraat 2 sous, Amsterdam", "lat": 52.3735759, "lng": 4.9057852},
  {"name":"Alida Verheij", "address":"Zakslootje 16B, Amsterdam", "lat": 52.3724826, "lng": 4.9021554},
  {"name":"Annemarie Verschoor", "address":"Oosterdok 39 , Amsterdam", "lat": 52.3726662, "lng": 4.9097452},
  {"name":"Ben Vollers", "address":"Leidekkerssteeg 13, Amsterdam", "lat": 52.3731062, "lng": 4.8964509},
  {"name":"Barbara Jet Wichers Hoeth", "address":"De Boomsspijker, Recht  Boomssloot 52, Amsterdam", "lat": 52.3719939, "lng": 4.903526299999999},
  {"name":"Gerard Wiersum", "address":"Oudezijds Voorburgwal 230, Amsterdam", "lat": 52.3721332, "lng": 4.8959619},
  {"name":"Dunya L.C. Willeman", "address":"Zuiderkerk, Zuiderkerkhof 72, Amsterdam", "lat": 52.3703054, "lng": 4.899804},
  {"name":"Anneliese Wolf", "address":"Kromme Waal 15, Amsterdam", "lat": 52.3749834, "lng": 4.9027007},
  {"name":"Ada van Wonderen", "address":"Geldersekade 88 sous, Amsterdam", "lat": 52.3741487, "lng": 4.9007875},
  {"name":"Will Zero", "address":"Ververstraat 99, Amsterdam", "lat": 52.3687905, "lng": 4.898992499999999}
]
}